[
    {
        "id": 6972,
        "name": "Rainbow Beach",
        "region": "Sunshine Coast",
        "state": "QLD",
        "postcode": "4581",
        "timeZone": "Australia/Brisbane",
        "lat": -25.90213,
        "lng": 153.09218,
        "typeId": 2
    },
    {
        "id": 19170,
        "name": "Cronulla Beach",
        "region": "Sydney",
        "state": "NSW",
        "postcode": "",
        "timeZone": "Australia/Sydney",
        "lat": -34.0557225,
        "lng": 151.1553955,
        "typeId": 2
    },
    {
        "id": 18374,
        "name": "Ocean Grove Beach",
        "region": "Barwon",
        "state": "VIC",
        "postcode": "",
        "timeZone": "Australia/Melbourne",
        "lat": -38.2721545,
        "lng": 144.5246744,
        "typeId": 2
    },
    {
        "id": 18156,
        "name": "Maroochydore Beach",
        "region": "Sunshine Coast",
        "state": "QLD",
        "postcode": "",
        "timeZone": "Australia/Brisbane",
        "lat": -26.66118,
        "lng": 153.10565,
        "typeId": 2
    },
    {
        "id": 17705,
        "name": "Port Macquarie Town Beach",
        "region": "Mid North Coast",
        "state": "NSW",
        "postcode": "",
        "timeZone": "Australia/Sydney",
        "lat": -31.4287835,
        "lng": 152.9186582,
        "typeId": 2
    },
    {
        "id": 8784,
        "name": "West Beach",
        "region": "Adelaide",
        "state": "SA",
        "postcode": "5024",
        "timeZone": "Australia/Adelaide",
        "lat": -34.9385128,
        "lng": 138.497858,
        "typeId": 2
    },
    {
        "id": 18119,
        "name": "Currumbin Beach",
        "region": "Gold Coast",
        "state": "QLD",
        "postcode": "",
        "timeZone": "Australia/Brisbane",
        "lat": -28.13116,
        "lng": 153.48897,
        "typeId": 2
    },
    {
        "id": 20006,
        "name": "Ocean Beach",
        "region": "Sunshine Coast",
        "state": "QLD",
        "postcode": "",
        "timeZone": "Australia/Brisbane",
        "lat": -26.9434232,
        "lng": 153.1485414,
        "typeId": 2
    },
    {
        "id": 6833,
        "name": "Coolum Beach",
        "region": "Sunshine Coast",
        "state": "QLD",
        "postcode": "4573",
        "timeZone": "Australia/Brisbane",
        "lat": -26.52722,
        "lng": 153.09049,
        "typeId": 2
    },
    {
        "id": 18371,
        "name": "Jan Juc Beach",
        "region": "Barwon",
        "state": "VIC",
        "postcode": "",
        "timeZone": "Australia/Melbourne",
        "lat": -38.3482582,
        "lng": 144.3052482,
        "typeId": 2
    },
    {
        "id": 17814,
        "name": "Manly Beach",
        "region": "Sydney",
        "state": "NSW",
        "postcode": "",
        "timeZone": "Australia/Sydney",
        "lat": -33.79452,
        "lng": 151.28858,
        "typeId": 2
    },
    {
        "id": 19017,
        "name": "Main Beach (Byron Bay)",
        "region": "Far North Coast",
        "state": "NSW",
        "postcode": "",
        "timeZone": "Australia/Sydney",
        "lat": -28.64125,
        "lng": 153.620726,
        "typeId": 2
    },
    {
        "id": 18824,
        "name": "Cottesloe Beach",
        "region": "Perth",
        "state": "WA",
        "postcode": "",
        "timeZone": "Australia/Perth",
        "lat": -31.99576,
        "lng": 115.75091,
        "typeId": 2
    },
    {
        "id": 11642,
        "name": "Bells Beach",
        "region": "Barwon",
        "state": "VIC",
        "postcode": "3228",
        "timeZone": "Australia/Melbourne",
        "lat": -38.3676,
        "lng": 144.28172,
        "typeId": 2
    },
    {
        "id": 4988,
        "name": "Bondi Beach",
        "region": "Sydney",
        "state": "NSW",
        "postcode": "2026",
        "timeZone": "Australia/Sydney",
        "lat": -33.89054,
        "lng": 151.27486,
        "typeId": 2
    },
    {
        "id": 17641,
        "name": "Newcastle Beach",
        "region": "Hunter",
        "state": "NSW",
        "postcode": "",
        "timeZone": "Australia/Sydney",
        "lat": -32.9302515,
        "lng": 151.7862939,
        "typeId": 2
    },
    {
        "id": 10027,
        "name": "Goolwa Beach",
        "region": "Fleurieu Peninsula",
        "state": "SA",
        "postcode": "5214",
        "timeZone": "Australia/Adelaide",
        "lat": -35.51069,
        "lng": 138.77109,
        "typeId": 2
    },
    {
        "id": 6003,
        "name": "Main Beach",
        "region": "Gold Coast",
        "state": "QLD",
        "postcode": "4217",
        "timeZone": "Australia/Brisbane",
        "lat": -27.977577,
        "lng": 153.4298586,
        "typeId": 2
    },
    {
        "id": 19180,
        "name": "Bellambi Beach",
        "region": "Illawarra",
        "state": "NSW",
        "postcode": "",
        "timeZone": "Australia/Sydney",
        "lat": -34.3640614,
        "lng": 150.9213781,
        "typeId": 2
    },
    {
        "id": 2459,
        "name": "Umina Beach",
        "region": "Central Coast",
        "state": "NSW",
        "postcode": "2257",
        "timeZone": "Australia/Sydney",
        "lat": -33.52875,
        "lng": 151.3075,
        "typeId": 2
    },
    {
        "id": 5107,
        "name": "Dundee Beach",
        "region": "Darwin",
        "state": "NT",
        "postcode": "0840",
        "timeZone": "Australia/Darwin",
        "lat": -12.75954,
        "lng": 130.35752,
        "typeId": 2
    },
    {
        "id": 19167,
        "name": "Maroubra Beach",
        "region": "Sydney",
        "state": "NSW",
        "postcode": "",
        "timeZone": "Australia/Sydney",
        "lat": -33.9493435,
        "lng": 151.2570834,
        "typeId": 2
    },
    {
        "id": 18126,
        "name": "Tallebudgera Beach",
        "region": "Gold Coast",
        "state": "QLD",
        "postcode": "",
        "timeZone": "Australia/Brisbane",
        "lat": -28.09978,
        "lng": 153.46307,
        "typeId": 2
    },
    {
        "id": 5824,
        "name": "Sarina Beach",
        "region": "Mackay",
        "state": "QLD",
        "postcode": "4737",
        "timeZone": "Australia/Brisbane",
        "lat": -21.3881093,
        "lng": 149.3135726,
        "typeId": 2
    },
    {
        "id": 19638,
        "name": "Coffs Harbour Beach",
        "region": "Mid North Coast",
        "state": "NSW",
        "postcode": "",
        "timeZone": "Australia/Sydney",
        "lat": -30.2989465,
        "lng": 153.1397938,
        "typeId": 2
    },
    {
        "id": 18364,
        "name": "Anglesea Beach",
        "region": "Barwon",
        "state": "VIC",
        "postcode": "",
        "timeZone": "Australia/Melbourne",
        "lat": -38.4169497,
        "lng": 144.1835832,
        "typeId": 2
    },
    {
        "id": 18919,
        "name": "Trigg Beach",
        "region": "Perth",
        "state": "WA",
        "postcode": "",
        "timeZone": "Australia/Perth",
        "lat": -31.8774,
        "lng": 115.75128,
        "typeId": 2
    },
    {
        "id": 8806,
        "name": "Beachport",
        "region": "Limestone Coast",
        "state": "SA",
        "postcode": "5280",
        "timeZone": "Australia/Adelaide",
        "lat": -37.48098,
        "lng": 140.01304,
        "typeId": 12
    },
    {
        "id": 2249,
        "name": "Palm Beach",
        "region": "Sydney",
        "state": "NSW",
        "postcode": "2108",
        "timeZone": "Australia/Sydney",
        "lat": -33.5979288,
        "lng": 151.3251364,
        "typeId": 2
    },
    {
        "id": 19555,
        "name": "Scarborough Beach",
        "region": "Perth",
        "state": "WA",
        "postcode": "",
        "timeZone": "Australia/Perth",
        "lat": -31.8935218,
        "lng": 115.754342,
        "typeId": 2
    },
    {
        "id": 17591,
        "name": "Evans Head Beach",
        "region": "Far North Coast",
        "state": "NSW",
        "postcode": "",
        "timeZone": "Australia/Sydney",
        "lat": -29.07951,
        "lng": 153.43828,
        "typeId": 2
    },
    {
        "id": 17573,
        "name": "The Entrance Beach",
        "region": "Central Coast",
        "state": "NSW",
        "postcode": "",
        "timeZone": "Australia/Sydney",
        "lat": -33.3468826,
        "lng": 151.5035247,
        "typeId": 2
    },
    {
        "id": 9887,
        "name": "Aldinga Beach",
        "region": "Adelaide",
        "state": "SA",
        "postcode": "5173",
        "timeZone": "Australia/Adelaide",
        "lat": -35.2791289,
        "lng": 138.4423255,
        "typeId": 2
    },
    {
        "id": 18118,
        "name": "Coolangatta Beach",
        "region": "Gold Coast",
        "state": "QLD",
        "postcode": "",
        "timeZone": "Australia/Brisbane",
        "lat": -28.16533,
        "lng": 153.53571,
        "typeId": 2
    },
    {
        "id": 18234,
        "name": "Gunnamatta Beach",
        "region": "Mornington Peninsula",
        "state": "VIC",
        "postcode": "",
        "timeZone": "Australia/Melbourne",
        "lat": -38.45704,
        "lng": 144.86865,
        "typeId": 2
    },
    {
        "id": 18158,
        "name": "Mudjimba Beach",
        "region": "Sunshine Coast",
        "state": "QLD",
        "postcode": "",
        "timeZone": "Australia/Brisbane",
        "lat": -26.61633,
        "lng": 153.10271,
        "typeId": 2
    },
    {
        "id": 2318,
        "name": "Avoca Beach",
        "region": "Central Coast",
        "state": "NSW",
        "postcode": "2251",
        "timeZone": "Australia/Sydney",
        "lat": -33.4655688,
        "lng": 151.435182,
        "typeId": 2
    },
    {
        "id": 6027,
        "name": "Palm Beach",
        "region": "Gold Coast",
        "state": "QLD",
        "postcode": "4221",
        "timeZone": "Australia/Brisbane",
        "lat": -28.12088,
        "lng": 153.47257,
        "typeId": 2
    },
    {
        "id": 1439,
        "name": "Culburra Beach",
        "region": "Illawarra",
        "state": "NSW",
        "postcode": "2540",
        "timeZone": "Australia/Sydney",
        "lat": -34.9278498,
        "lng": 150.7694363,
        "typeId": 2
    },
    {
        "id": 19266,
        "name": "Inverloch Surf Beach",
        "region": "Gippsland",
        "state": "VIC",
        "postcode": "",
        "timeZone": "Australia/Melbourne",
        "lat": -38.6478324,
        "lng": 145.7011771,
        "typeId": 2
    },
    {
        "id": 19298,
        "name": "Thirteenth Beach",
        "region": "Barwon",
        "state": "VIC",
        "postcode": "",
        "timeZone": "Australia/Melbourne",
        "lat": -38.2854615,
        "lng": 144.4615459,
        "typeId": 2
    },
    {
        "id": 4502,
        "name": "Valla Beach",
        "region": "Mid North Coast",
        "state": "NSW",
        "postcode": "2448",
        "timeZone": "Australia/Sydney",
        "lat": -30.59181,
        "lng": 153.00848,
        "typeId": 2
    },
    {
        "id": 17805,
        "name": "Dee Why Beach",
        "region": "Sydney",
        "state": "NSW",
        "postcode": "",
        "timeZone": "Australia/Sydney",
        "lat": -33.74766,
        "lng": 151.30097,
        "typeId": 2
    }
]