[
    {
        "id": 5391,
        "name": "Airlie Beach",
        "region": "Mackay",
        "state": "QLD",
        "postcode": "4802",
        "timeZone": "Australia/Brisbane",
        "lat": -20.26787,
        "lng": 148.71622,
        "typeId": 16
    },
    {
        "id": 6972,
        "name": "Rainbow Beach",
        "region": "Sunshine Coast",
        "state": "QLD",
        "postcode": "4581",
        "timeZone": "Australia/Brisbane",
        "lat": -25.90213,
        "lng": 153.09218,
        "typeId": 2
    },
    {
        "id": 7127,
        "name": "Nudgee Beach",
        "region": "Brisbane",
        "state": "QLD",
        "postcode": "4014",
        "timeZone": "Australia/Brisbane",
        "lat": -27.34749,
        "lng": 153.10555,
        "typeId": 14
    },
    {
        "id": 18156,
        "name": "Maroochydore Beach",
        "region": "Sunshine Coast",
        "state": "QLD",
        "postcode": "",
        "timeZone": "Australia/Brisbane",
        "lat": -26.66118,
        "lng": 153.10565,
        "typeId": 2
    },
    {
        "id": 17705,
        "name": "Port Macquarie Town Beach",
        "region": "Mid North Coast",
        "state": "NSW",
        "postcode": "",
        "timeZone": "Australia/Sydney",
        "lat": -31.4287835,
        "lng": 152.9186582,
        "typeId": 2
    },
    {
        "id": 20006,
        "name": "Ocean Beach",
        "region": "Sunshine Coast",
        "state": "QLD",
        "postcode": "",
        "timeZone": "Australia/Brisbane",
        "lat": -26.9434232,
        "lng": 153.1485414,
        "typeId": 2
    },
    {
        "id": 7039,
        "name": "Beachmere",
        "region": "Sunshine Coast",
        "state": "QLD",
        "postcode": "4510",
        "timeZone": "Australia/Brisbane",
        "lat": -27.12906,
        "lng": 153.05226,
        "typeId": 14
    },
    {
        "id": 6833,
        "name": "Coolum Beach",
        "region": "Sunshine Coast",
        "state": "QLD",
        "postcode": "4573",
        "timeZone": "Australia/Brisbane",
        "lat": -26.52722,
        "lng": 153.09049,
        "typeId": 2
    },
    {
        "id": 19017,
        "name": "Main Beach (Byron Bay)",
        "region": "Far North Coast",
        "state": "NSW",
        "postcode": "",
        "timeZone": "Australia/Sydney",
        "lat": -28.64125,
        "lng": 153.620726,
        "typeId": 2
    },
    {
        "id": 4988,
        "name": "Bondi Beach",
        "region": "Sydney",
        "state": "NSW",
        "postcode": "2026",
        "timeZone": "Australia/Sydney",
        "lat": -33.89054,
        "lng": 151.27486,
        "typeId": 2
    },
    {
        "id": 17641,
        "name": "Newcastle Beach",
        "region": "Hunter",
        "state": "NSW",
        "postcode": "",
        "timeZone": "Australia/Sydney",
        "lat": -32.9302515,
        "lng": 151.7862939,
        "typeId": 2
    },
    {
        "id": 6003,
        "name": "Main Beach",
        "region": "Gold Coast",
        "state": "QLD",
        "postcode": "4217",
        "timeZone": "Australia/Brisbane",
        "lat": -27.977577,
        "lng": 153.4298586,
        "typeId": 2
    },
    {
        "id": 6871,
        "name": "Golden Beach",
        "region": "Sunshine Coast",
        "state": "QLD",
        "postcode": "4551",
        "timeZone": "Australia/Brisbane",
        "lat": -26.82302,
        "lng": 153.11987,
        "typeId": 14
    },
    {
        "id": 6446,
        "name": "Mission Beach",
        "region": "Far North",
        "state": "QLD",
        "postcode": "4852",
        "timeZone": "Australia/Brisbane",
        "lat": -17.86729,
        "lng": 146.10716,
        "typeId": 16
    },
    {
        "id": 5824,
        "name": "Sarina Beach",
        "region": "Mackay",
        "state": "QLD",
        "postcode": "4737",
        "timeZone": "Australia/Brisbane",
        "lat": -21.3881093,
        "lng": 149.3135726,
        "typeId": 2
    },
    {
        "id": 18118,
        "name": "Coolangatta Beach",
        "region": "Gold Coast",
        "state": "QLD",
        "postcode": "",
        "timeZone": "Australia/Brisbane",
        "lat": -28.16533,
        "lng": 153.53571,
        "typeId": 2
    }

]